"점포명",시도명,시군구명,시군구코드,소재지도로명주소,소재지지번주소,위도,경도,여성안심지킴이집전화번호,관할경찰서명,지정연도,운영여부,데이터기준일자
"대동하늘공원",대전광역시,동구,30110,대전광역시 동구 대동1-641,대전광역시 동구 대동1-641,36.33171504,127.4515649,042-251-4514,동부서상황실,2017,Y,2023-07-21
GS25 가양큰솔점,대전광역시,동구,30110,대전광역시 동구 우암로 312번길 16,대전광역시 동구 가양동 171-30,36.34665194,127.4502795,042-251-4514,동부서상황실,2017,Y,2023-07-21
"세븐일레븐 대전가양보건점",대전광역시,동구,30110,대전광역시 동구 우암로 326번길 14,대전광역시 동구 가양동 161-5,36.34780344,127.4517866,042-251-4514,동부서상황실,2017,Y,2023-07-21
GS25 우송대서문점,대전광역시,동구,30110,대전광역시 동구 가양남로 32,대전광역시 동구 가양동 356-1,36.33872154,127.4445536,042-251-4514,동부서상황실,2017,Y,2023-07-21
GS25 보건대학사점,대전광역시,동구,30110,대전광역시 동구 충정로 32 캠퍼스당구장,대전광역시 동구 가양동 147-7,36.34827582,127.4545797,042-251-4514,동부서상황실,2017,Y,2023-07-21
GS25 가오은어송점,대전광역시,동구,30110,대전광역시 동구 은어송로 116 은어송마을4단지아파트,대전광역시 동구 가오동 555,36.31027658,127.4620485,042-251-4514,동부서상황실,2017,Y,2023-07-21
GS25 가오중앙점,대전광역시,동구,30110,대전광역시 동구 은어송로52번길 5-4 가오동 굿모닝타운,대전광역시 동구 가오동 654,36.30567944,127.4559001,042-251-4514,동부서상황실,2017,Y,2023-07-21
GS25 대전낭월점,대전광역시,동구,30110,대전광역시 동구 산내로 1305번길 1,대전광역시 동구 낭월동 592,36.27986783,127.4680672,042-251-4514,동부서상황실,2017,Y,2023-07-21
GS25 낭월제일점,대전광역시,동구,30110,대전광역시 동구 산내로 1375 오투그란데 아파트,대전광역시 동구 낭월동 304,36.28752015,127.4641525,042-251-4514,동부서상황실,2017,Y,2023-07-21
GS25 대전삼성점,대전광역시,동구,30110,대전광역시 동구 대전천북로 88,대전광역시 동구 삼성동 330-13,36.33909905,127.4196203,042-251-4514,동부서상황실,2017,Y,2023-07-21
GS25 대전성남점,대전광역시,동구,30110,대전광역시 동구 계족로 392번길 52,대전광역시 동구 성남동 497-1,36.34757386,127.4353442,042-251-4514,동부서상황실,2017,Y,2023-07-21
GS25 성남스마트점,대전광역시,동구,30110,대전광역시 동구 성남로 15 휴먼시아 1층,대전광역시 동구 성남동 528,36.34304284,127.4339175,042-251-4514,동부서상황실,2017,Y,2023-07-21
GS25 대전인동점,대전광역시,동구,30110,대전광역시 동구 인창로 59,대전광역시 동구 인동 72-11,36.32402678,127.4359147,042-251-4514,동부서상황실,2017,Y,2023-07-21
"미니스톱 대전대정문점",대전광역시,동구,30110,대전광역시 동구 새울로 123번길 38-29,대전광역시 동구 용운동 180-1,36.33084765,127.4610164,042-251-4514,동부서상황실,2017,Y,2023-07-21
GS25 대전대학로,대전광역시,동구,30110,대전광역시 동구 대학로 33 혜성빌딩,대전광역시 동구 용운동 717,36.33301033,127.4549643,042-251-4514,동부서상황실,2017,Y,2023-07-21
GS25대전대학사점,대전광역시,동구,30110,대전광역시 동구 대학로 62-60,대전광역시 동구 용운동 603,36.33759832,127.4578732,042-251-4514,동부서상황실,2017,Y,2023-07-21
GS25 뉴대전대정문점,대전광역시,동구,30110,대전광역시 동구 용운로 147번길 93,대전광역시 동구 용운동 174-20,36.33093978,127.4614613,042-251-4514,동부서상황실,2017,Y,2023-07-21
"세븐일레븐 대전대원룸점",대전광역시,동구,30110,대전광역시 동구 새울로123번길 28-24,대전광역시 동구 용운동 182-1,36.33057978,127.4615752,042-251-4514,동부서상황실,2017,Y,2023-07-21
GS25 용운센터점,대전광역시,동구,30110,대전광역시 동구 새울로 103-1번지,대전광역시 동구 용운동 305-3,36.32767447,127.4615735,042-251-4514,동부서상황실,2017,Y,2023-07-21
GS25 판암점,대전광역시,동구,30110,대전광역시 동구 동부로 73번길 25,대전광역시 동구 용운동 401-10,36.32329179,127.4602776,042-251-4514,동부서상황실,2017,Y,2023-07-21
"세븐일레븐 대전대하늘점",대전광역시,동구,30110,대전광역시 동구 새울로109번길 46,대전광역시 동구 용운동 289-11,36.32862295,127.4593276,042-251-4514,동부서상황실,2017,Y,2023-07-21
GS25 복합터미널1호점,대전광역시,동구,30110,대전광역시 동구 동서대로 1689 대전복합터미널,대전광역시 동구 용전동 63-34,36.35031101,127.4366949,042-251-4514,동부서상황실,2017,Y,2023-07-21
"세븐일레븐 새피앙점",대전광역시,동구,30110,대전광역시 동구 홍도로 46,대전광역시 동구 용전동 82-9,36.35015497,127.4284849,042-251-4514,동부서상황실,2017,Y,2023-07-21
"세븐일레븐 용전대로점",대전광역시,동구,30110,대전광역시 동구 계족로 507,대전광역시 동구 용전동 39-26,36.35702384,127.4325574,042-251-4514,동부서상황실,2017,Y,2023-07-21
GS25 대전자양로점,대전광역시,동구,30110,대전광역시 동구 한밭대로 1290,대전광역시 동구 용전동 66-3,36.35349257,127.4386441,042-251-4514,동부서상황실,2017,Y,2023-07-21
"보보스24편의점",대전광역시,동구,30110,대전광역시 동구 동서대로 1695번길 76,대전광역시 동구 용전동 67-9,36.35258772,127.4369568,042-251-4514,동부서상황실,2017,Y,2023-07-21
GS25 우송사랑점,대전광역시,동구,30110,대전광역시 동구 동대전로 131번길 8-3,대전광역시 동구 자양동 261-13,36.3342815,127.4452311,042-251-4514,동부서상황실,2017,Y,2023-07-21
GS25 우송아트,대전광역시,동구,30110,대전광역시 동구 동대전로 171-29,대전광역시 동구 자양동 67-1,36.3363162,127.4467205,042-251-4514,동부서상황실,2017,Y,2023-07-21
GS25 판암IC점,대전광역시,동구,30110,대전광역시 동구 옥천로 190,대전광역시 동구 판암동 351-7,36.31766382,127.4613631,042-251-4514,동부서상황실,2017,Y,2023-07-21
GS25 홍도중앙점,대전광역시,동구,30110,대전광역시 동구 동산초교로 23번길 15,대전광역시 동구 홍도동 23-1,36.34634762,127.4257498,042-251-4514,동부서상황실,2017,Y,2023-07-21
"오렌지마트 한남대점",대전광역시,동구,30110,대전광역시 동구 홍도로 71-1,대전광역시 동구 홍도동 78-3,36.35247687,127.4277883,042-251-4514,동부서상황실,2017,Y,2023-07-21
"세븐일레븐  한남대학사점",대전광역시,동구,30110,대전광역시 동구 한남로 16,대전광역시 동구 홍도동 96-19,36.35125442,127.4265828,042-251-4514,동부서상황실,2017,Y,2023-07-21
